{
    "body": {
        "list": [{
                 "businessId": 4059,
                 "providerId": "H180",
                 "name": "STAR MEDICA MORELIA",
                 "address": "VIRREY DE MENDOZA NUM EXT 2000 COL FELIX IRETA",
                 "phone": "(01 443) 3227700---",
                 "lat": "19.683813",
                 "lon": "-101.1909208",
                 "type": 8,
                 "is_favorite": false,
                 "list": null,
                 "sToken": null
                 }, {
                 "businessId": 4097,
                 "providerId": "H176",
                 "name": "SANATORIO LA LUZ",
                 "address": "GENERAL NICOLAS BRAVO NUM EXT 50 NUM INT ALTOS COL CHAPULTEPEC NORTE",
                 "phone": "(01 443) 3152966-(01 443) 3152967--",
                 "lat": "19.6960057",
                 "lon": "-101.1734287",
                 "type": 3,
                 "is_favorite": false,
                 "list": null,
                 "sToken": null
                 }, {
                 "businessId": 4103,
                 "providerId": "H175",
                 "name": "HOSPITAL MEMORIAL",
                 "address": "PERIFERICO PASEO DE LA REPUBLICA NUM EXT 2111 COL CAMELINAS",
                 "phone": "(01 443) 3151099-(01 443) 3151047--",
                 "lat": "19.6821971",
                 "lon": "-101.1725482",
                 "type": 8,
                 "is_favorite": false,
                 "list": null,
                 "sToken": null
                 }, {
                 "businessId": 4105,
                 "providerId": "H173",
                 "name": "CENTRO MEDICO DE ZACAPU",
                 "address": "AVENIDA DE LAS ROSAS NUM EXT 95 COL LOMAS JARDIN",
                 "phone": "(01 436) 3639910---",
                 "lat": "19.8081877",
                 "lon": "-101.7895363",
                 "type": 3,
                 "is_favorite": false,
                 "list": null,
                 "sToken": null
                 }, {
                 "businessId": 4106,
                 "providerId": "H177",
                 "name": "HOSPITAL SAN JOSE DE ZAMORA",
                 "address": "COLON OTE. NUM EXT 320 COL CENTRO",
                 "phone": "(01 351) 5169090-(01 351) 5121596--",
                 "lat": "19.9846502",
                 "lon": "-102.2798155",
                 "type": 8,
                 "is_favorite": false,
                 "list": null,
                 "sToken": null
                 }, {
                 "businessId": 4109,
                 "providerId": "H174",
                 "name": "HOSPITAL SANTA MARIA DE ZAMORA",
                 "address": "AV. MADERO SUR NUM EXT 749 COL LA LUNETA",
                 "phone": "(01 351) 5124244-(01 351) 5124294--",
                 "lat": "19.9775733",
                 "lon": "-102.2911206",
                 "type": 3,
                 "is_favorite": false,
                 "list": null,
                 "sToken": null
                 }, {
                 "businessId": 4115,
                 "providerId": "H179",
                 "name": "HOSPITAL EL ANGEL",
                 "address": "JUAN N. LOPEZ NUM EXT 66 COL LA MAGDALENA",
                 "phone": "(01 452) 5248030-(01 452) 5248027--",
                 "lat": "19.4088883",
                 "lon": "-102.0576604",
                 "type": 8,
                 "is_favorite": false,
                 "list": null,
                 "sToken": null
                 }, {
                 "businessId": 4116,
                 "providerId": "H286",
                 "name": "HOSPITAL FRAY JUAN DE SAN MIGUEL",
                 "address": "MAZATLAN NUM EXT 75 COL LA MAGDALENA",
                 "phone": "(01 452) 5244447-(01 452) 5198166, 8167--",
                 "lat": "19.4024142",
                 "lon": "-102.0564173",
                 "type": 3,
                 "is_favorite": false,
                 "list": null,
                 "sToken": null
                 }, {
                 "businessId": 4125,
                 "providerId": "H172",
                 "name": "CLINICA MORELIA",
                 "address": "ANDADOR TANGANXOAN NUM EXT 89 COL AMPLIACION JARENE",
                 "phone": "(01 753) 5323687-(01 753) 5321222--",
                 "lat": "17.967783",
                 "lon": "-102.2213096",
                 "type": 8,
                 "is_favorite": false,
                 "list": null,
                 "sToken": null
                 }, {
                 "businessId": 4126,
                 "providerId": "H178",
                 "name": "CLINICA FATIMA",
                 "address": "AV. MELCHOR OCAMPO NUM EXT 1980 COL LOMAS DE BELLA VISTA",
                 "phone": "(01 753) 5370528-(01 753) 5376127--",
                 "lat": "17.9716809",
                 "lon": "-102.2234265",
                 "type": 3,
                 "is_favorite": false,
                 "list": null,
                 "sToken": null
                 }, {
                 "businessId": 7151,
                 "providerId": "H31346",
                 "name": "CENTRO MEDICO DE ESPECIALIDADES SANTA CLARA",
                 "address": "CALLE D NUM EXT 193 COL\tFRACC AGUA MARINA\n",
                 "phone": "(01 753) 5391563-(01 753) 1377827--",
                 "lat": "19.9846897",
                 "lon": "-102.6981011",
                 "type": 3,
                 "is_favorite": false,
                 "list": null,
                 "sToken": null
                 }, {
                 "businessId": 8933,
                 "providerId": "H31528",
                 "name": "FEMEDI CLINICA INTEGRAL",
                 "address": "AVENIDA OCAMPO 1320  ALBERTO OVIEDO MOTA\n",
                 "phone": "(01 443) 3274600-(01 443) 3269632--",
                 "lat": null,
                 "lon": null,
                 "type": 3,
                 "is_favorite": false,
                 "list": null,
                 "sToken": null
                 }, {
                 "businessId": 9448,
                 "providerId": "H31462",
                 "name": "HOSPITAL ANGELES MORELIA",
                 "address": "AV. MONTAÑA MONARCA NORTE 331 COL. DESARROLLO MONTAÑA MONARCA",
                 "phone": "(01 443) 1477150---",
                 "lat": null,
                 "lon": null,
                 "type": 8,
                 "is_favorite": false,
                 "list": null,
                 "sToken": null
                 }, {
                 "businessId": 9453,
                 "providerId": "H31575",
                 "name": "HOSPITAL CARMEN ELENA S.A. DE C.V.",
                 "address": "LA PALMA 220  MIRADOR DE LA PALMA",
                 "phone": "(01 443) 3413388---",
                 "lat": null,
                 "lon": null,
                 "type": 3,
                 "is_favorite": false,
                 "list": null,
                 "sToken": null
                 }, {
                 "businessId": 9466,
                 "providerId": "H31526",
                 "name": "HOSPITAL INNOVA MEDICA",
                 "address": "JUSTO MENDOZA 222  CUAUHTEMOC\n",
                 "phone": "(01 443) 3413333---",
                 "lat": null,
                 "lon": null,
                 "type": 3,
                 "is_favorite": false,
                 "list": null,
                 "sToken": null
                 }, {
                 "businessId": 9500,
                 "providerId": "H31518",
                 "name": "HOSPITAL SANTA MARIA",
                 "address": "BOULEVARD LAZARA CARDENAS NORTE 229  CENTRO\n",
                 "phone": "(01 353) 5322690---",
                 "lat": null,
                 "lon": null,
                 "type": 3,
                 "is_favorite": false,
                 "list": null,
                 "sToken": null
                 }, {
                 "businessId": 9508,
                 "providerId": "H31508",
                 "name": "HOSPITAL VICTORIA MEDICA CENTER",
                 "address": "ACUEDUCTO 2800 S/N LOMAS DE HIDALGO\n",
                 "phone": "(01 443) 3148184-(01 443) 3401444--",
                 "lat": null,
                 "lon": null,
                 "type": 8,
                 "is_favorite": false,
                 "list": null,
                 "sToken": null
                 }, {
                 "businessId": 4102,
                 "providerId": "F182",
                 "name": "DISTRIBUIDORA FARMACEUTICA MARVA  MORELIA LAS CAMELINAS",
                 "address": "PASEO DE LA REPUBLICA NUM EXT 2015 COL LAS CAMELINAS",
                 "phone": "(01 443) 3151180-(01 443) 3149255--",
                 "lat": null,
                 "lon": null,
                 "type": 2,
                 "is_favorite": false,
                 "list": null,
                 "sToken": null
                 }, {
                 "businessId": 7865,
                 "providerId": "F1636",
                 "name": "FARMACIA WAL MART / CAMINO A QUIROGA, MORELIA",
                 "address": "AV. FRANCISCO I MADERO L NUM EXT 7590 COL EL ZAPOTE Y COMIO",
                 "phone": "(01 443) 53283500---",
                 "lat": null,
                 "lon": null,
                 "type": 2,
                 "is_favorite": false,
                 "list": null,
                 "sToken": null
                 }, {
                 "businessId": 8340,
                 "providerId": "F1745",
                 "name": "FARMACIA WAL MART / MORELIA",
                 "address": "CALZADA VENTURA PUENTE ESQ CAMELIA  NUM EXT 1843 COL LOS VIVEROS",
                 "phone": "(01 443) 53283500---",
                 "lat": null,
                 "lon": null,
                 "type": 2,
                 "is_favorite": false,
                 "list": null,
                 "sToken": null
                 }, {
                 "businessId": 8201,
                 "providerId": "F1755",
                 "name": "FARMACIA WAL MART / LA PIEDAD MICH",
                 "address": "BLVD. LAZARO CARDENAS ESQ. CALLE LIBERTAD NUM EXT 1129 COL CENTRO",
                 "phone": "(01 352) 53283500---",
                 "lat": null,
                 "lon": null,
                 "type": 2,
                 "is_favorite": false,
                 "list": null,
                 "sToken": null
                 }, {
                 "businessId": 8228,
                 "providerId": "F1761",
                 "name": "FARMACIA WAL MART / LAZARO CARDENAS",
                 "address": "AV. MELCHOR OCAMPO  NUM EXT 6 COL SEGUNDO SECTOR DE FIDEICOMISO",
                 "phone": "(01 753) 53283500---",
                 "lat": null,
                 "lon": null,
                 "type": 2,
                 "is_favorite": false,
                 "list": null,
                 "sToken": null
                 }, {
                 "businessId": 8789,
                 "providerId": "F1802",
                 "name": "FARMACIA WAL MART / ZACAPU, MICHOACAN",
                 "address": "CARRETERA MEXICO GUADALAJARA  NUM EXT 877 COL ZACAPU CENTRO",
                 "phone": "(01 436) 53283500---",
                 "lat": null,
                 "lon": null,
                 "type": 2,
                 "is_favorite": false,
                 "list": null,
                 "sToken": null
                 }, {
                 "businessId": 8338,
                 "providerId": "F1807",
                 "name": "FARMACIA WAL MART / MORELIA",
                 "address": "AV. MADERO PONIENTE  NUM EXT 1550 COL LOS VIVEROS",
                 "phone": "(01 443) 53283500---",
                 "lat": null,
                 "lon": null,
                 "type": 2,
                 "is_favorite": false,
                 "list": null,
                 "sToken": null
                 }, {
                 "businessId": 8341,
                 "providerId": "F1833",
                 "name": "FARMACIA WAL MART / MORELIA ESTE",
                 "address": "PERIFERICO PASEO DE LA REPUBLICA  NUM EXT 495 COL ISAAC ARRIAGA",
                 "phone": "(01 443) 53283500---",
                 "lat": null,
                 "lon": null,
                 "type": 2,
                 "is_favorite": false,
                 "list": null,
                 "sToken": null
                 }, {
                 "businessId": 8731,
                 "providerId": "F1834",
                 "name": "FARMACIA WAL MART / URUAPAN, MICHOACAN",
                 "address": "CALZADA LA FUENTE  NUM EXT 2350 COL PUENTE DE PARAMO",
                 "phone": "(01 452) 53283500---",
                 "lat": null,
                 "lon": null,
                 "type": 2,
                 "is_favorite": false,
                 "list": null,
                 "sToken": null
                 }, {
                 "businessId": 8797,
                 "providerId": "F1835",
                 "name": "FARMACIA WAL MART / ZAMORA",
                 "address": "FRANCISCO I. MADERO  NUM EXT 364 COL FRACC  MADERO",
                 "phone": "(01 351) 53283500---",
                 "lat": null,
                 "lon": null,
                 "type": 2,
                 "is_favorite": false,
                 "list": null,
                 "sToken": null
                 }, {
                 "businessId": 8808,
                 "providerId": "F1836",
                 "name": "FARMACIA WAL MART / ZITACUARO",
                 "address": "CALLE GENERAL PUEBLITA NORTE  NUM EXT 26 COL HEROES FERROCARRILEROS",
                 "phone": "(01 715) 53283500---",
                 "lat": null,
                 "lon": null,
                 "type": 2,
                 "is_favorite": false,
                 "list": null,
                 "sToken": null
                 }, {
                 "businessId": 8264,
                 "providerId": "F1850",
                 "name": "FARMACIA WAL MART / LOS REYES SALGADO",
                 "address": "CARRETERA JACONALOS REYES ENTRE ART. 27 CONSTITUCIONAL NUM EXT 161 COL SAN JUAN DE DIOS",
                 "phone": "(01 354) 53283500---",
                 "lat": null,
                 "lon": null,
                 "type": 2,
                 "is_favorite": false,
                 "list": null,
                 "sToken": null
                 }, {
                 "businessId": 8475,
                 "providerId": "F1853",
                 "name": "FARMACIA WAL MART / PUREPERO DE ECHAIZ, MICHOACAN",
                 "address": "LAZARO CARDENAS NUM EXT 231 COL CENTRO",
                 "phone": "(01 471) 53283500---",
                 "lat": null,
                 "lon": null,
                 "type": 2,
                 "is_favorite": false,
                 "list": null,
                 "sToken": null
                 }, {
                 "businessId": 8410,
                 "providerId": "F1856",
                 "name": "FARMACIA WAL MART / PERIBAN DE RAMOS, MICHOACAN",
                 "address": "PRIMERO DE MAYO  NUM EXT 13 COL CENTRO",
                 "phone": "(01 354) 53283500---",
                 "lat": null,
                 "lon": null,
                 "type": 2,
                 "is_favorite": false,
                 "list": null,
                 "sToken": null
                 }, {
                 "businessId": 8118,
                 "providerId": "F1903",
                 "name": "FARMACIA WAL MART / HUETAMO, MICHACAN",
                 "address": "AV. MADERO NORTE ENTRE LAS CALLES DE TABACHINES Y CAMELINAS NUM EXT S/N COL CRUZ GORDA",
                 "phone": "(01 435) 53283500---",
                 "lat": null,
                 "lon": null,
                 "type": 2,
                 "is_favorite": false,
                 "list": null,
                 "sToken": null
                 }, {
                 "businessId": 8476,
                 "providerId": "F1923",
                 "name": "FARMACIA WAL MART / PURUÁNDIRO   MICHOACÁN",
                 "address": "EMILIO CARRANZA  NUM EXT 466 COL CENTRO",
                 "phone": "(01 438) 53283500---",
                 "lat": null,
                 "lon": null,
                 "type": 2,
                 "is_favorite": false,
                 "list": null,
                 "sToken": null
                 }, {
                 "businessId": 8365,
                 "providerId": "F1935",
                 "name": "FARMACIA WAL MART / NUEVA ITALIA, MICHOACAN",
                 "address": "AV LAZARO CARDENAS SUR ENTRE ISIDRO VEGA Y FRANCISCO VILLA NUM EXT 195 COL EL CARRIEL",
                 "phone": "(01 425) 53283500---",
                 "lat": null,
                 "lon": null,
                 "type": 2,
                 "is_favorite": false,
                 "list": null,
                 "sToken": null
                 }, {
                 "businessId": 8858,
                 "providerId": "F1364",
                 "name": "FARMACOS ESPECIALIZADOS MICHOACAN MORELIA I",
                 "address": "AV. LAZARO CARDENAS NUM EXT 1200 COL CENTRO \n",
                 "phone": "(01 443) 3177624-(01 443) 3127664--",
                 "lat": null,
                 "lon": null,
                 "type": 2,
                 "is_favorite": false,
                 "list": null,
                 "sToken": null
                 }, {
                 "businessId": 7893,
                 "providerId": "F1468",
                 "name": "FARMACIA WAL MART / CD  HIDALGO MICHOACAN",
                 "address": "BULEVARD ADRIAN PEÑA SOTO  NUM EXT 4 COL FRACC  ARBOLEDAS DEL RIO",
                 "phone": "(01 55) 53283500---",
                 "lat": null,
                 "lon": null,
                 "type": 2,
                 "is_favorite": false,
                 "list": null,
                 "sToken": null
                 }, {
                 "businessId": 8506,
                 "providerId": "F1473",
                 "name": "FARMACIA WAL MART / SAHUAYO MICHOACAN",
                 "address": "BLVD. LAZARO CARDENAS  SUR  ENTRE AV. SANCHEZ DEL RIO  NUM EXT 1200 COL CENTRO",
                 "phone": "(01 55) 53283500---",
                 "lat": null,
                 "lon": null,
                 "type": 2,
                 "is_favorite": false,
                 "list": null,
                 "sToken": null
                 }, {
                 "businessId": 8406,
                 "providerId": "F1484",
                 "name": "FARMACIA WAL MART / PATZCUARO, MICHOACAN",
                 "address": "LAZARO CARDENAS  NUM EXT 401 COL PATZCUARO CENTRO",
                 "phone": "(01 55) 53283500---",
                 "lat": null,
                 "lon": null,
                 "type": 2,
                 "is_favorite": false,
                 "list": null,
                 "sToken": null
                 }, {
                 "businessId": 8342,
                 "providerId": "F1494",
                 "name": "FARMACIA WAL MART / MORELIA NORTE",
                 "address": "AV. TORREON NUEVO 1400 ESQ. DRAMATURGO MEXICANO NUM EXT 1400 COL EL REALITO",
                 "phone": "(01 55) 53283500---",
                 "lat": null,
                 "lon": null,
                 "type": 2,
                 "is_favorite": false,
                 "list": null,
                 "sToken": null
                 }, {
                 "businessId": 8859,
                 "providerId": "F1365",
                 "name": "FARMACOS ESPECIALIZADOS MICHOACAN MORELIA II",
                 "address": "VIRREY DE MENDOZA NUM EXT 1998 INT. 1 COL FÉLIX IRETA\n",
                 "phone": "(01 443) 2993066-(01 443) 2993067--",
                 "lat": null,
                 "lon": null,
                 "type": 2,
                 "is_favorite": false,
                 "list": null,
                 "sToken": null
                 }, {
                 "businessId": 8860,
                 "providerId": "F1386",
                 "name": "FARMACOS ESPECIALIZADOS MICHOACAN URUAPAN",
                 "address": "PASEO LAZARO CARDENAS NUM EXT 1014 COL LA MAGDALENA\n",
                 "phone": "(01 452) 5247332-(01 452) 5249329--",
                 "lat": null,
                 "lon": null,
                 "type": 2,
                 "is_favorite": false,
                 "list": null,
                 "sToken": null
                 }, {
                 "businessId": 8861,
                 "providerId": "F1391",
                 "name": "FARMACOS ESPECIALIZADOS MICHOACAN ZAMORA",
                 "address": "DR. ALONSO MARTINEZ ESQ. VIRREY DE MENDOZA NUM EXT 630\tINT. 10 COL JARDINADAS\n",
                 "phone": "(01 351) 5154142-(01 351) 5156634--",
                 "lat": null,
                 "lon": null,
                 "type": 2,
                 "is_favorite": false,
                 "list": null,
                 "sToken": null
                 }, {
                 "businessId": 8265,
                 "providerId": "F1503",
                 "name": "FARMACIA WAL MART / LOS SAUCES MORELIA, MICHOACAN",
                 "address": "CARRETERA MORELIA ZINAPECUARO KM 2  NUM EXT S/N COL RINCONADA LOS SAUCES",
                 "phone": "(01 55) 53283500---",
                 "lat": null,
                 "lon": null,
                 "type": 2,
                 "is_favorite": false,
                 "list": null,
                 "sToken": null
                 }, {
                 "businessId": 7791,
                 "providerId": "F1513",
                 "name": "FARMACIA WAL MART / APATZINGAN, MICHOACAN",
                 "address": "AV. FRANCISCO I MADERO NUM EXT 733 COL 18 DE MARZO",
                 "phone": "(01 55) 53283500---",
                 "lat": null,
                 "lon": null,
                 "type": 2,
                 "is_favorite": false,
                 "list": null,
                 "sToken": null
                 }, {
                 "businessId": 8621,
                 "providerId": "F1977",
                 "name": "FARMACIA WAL MART / TANGANCICUARO, MICHOACAN",
                 "address": "AV. GENERAL CARLOS SALAZAR ORIENTE  NUM EXT 892 COL SECTOR 4 CUPATZIRO",
                 "phone": "(01 355) 53283500---",
                 "lat": null,
                 "lon": null,
                 "type": 2,
                 "is_favorite": false,
                 "list": null,
                 "sToken": null
                 }, {
                 "businessId": 8282,
                 "providerId": "F1981",
                 "name": "FARMACIA WAL MART / MARAVATIO, MICHOACAN",
                 "address": "LIBRAMIENTO SUR ENTRE AV. MOCTEZUMA  NUM EXT 460 COL LA HORTALIZA",
                 "phone": "(01 447) 53283500---",
                 "lat": null,
                 "lon": null,
                 "type": 2,
                 "is_favorite": false,
                 "list": null,
                 "sToken": null
                 }, {
                 "businessId": 8786,
                 "providerId": "F1988",
                 "name": "FARMACIA WAL MART / YURECUARO, MICHOACAN",
                 "address": "PROLONGACION CONSTITUCION ENTRE CONSTITUCION  NUM EXT 29 COL CENTRO",
                 "phone": "(01 356) 53283500---",
                 "lat": null,
                 "lon": null,
                 "type": 2,
                 "is_favorite": false,
                 "list": null,
                 "sToken": null
                 }, {
                 "businessId": 8610,
                 "providerId": "F2005",
                 "name": "FARMACIA WAL MART / TACAMBARO, MICHOACAN",
                 "address": "LIBRAMIENTO SUROESTE ENTRE LAS CALLES 5 DE MAYO Y REFORMA NUM EXT 431 COL LA PURISIMA",
                 "phone": "(01 459) 53283500---",
                 "lat": null,
                 "lon": null,
                 "type": 2,
                 "is_favorite": false,
                 "list": null,
                 "sToken": null
                 }, {
                 "businessId": 8482,
                 "providerId": "F2025",
                 "name": "FARMACIA WAL MART / QUIROGA, MICHOACAN",
                 "address": "AV. LAZARO CARDENAS SUR  NUM EXT 617 COL CENTRO",
                 "phone": "(01 454) 53283500---",
                 "lat": null,
                 "lon": null,
                 "type": 2,
                 "is_favorite": false,
                 "list": null,
                 "sToken": null
                 }, {
                 "businessId": 7799,
                 "providerId": "F2029",
                 "name": "FARMACIA WAL MART / ARIO DE ROSALES, MORELIA",
                 "address": "AV. LAZARO CARDENAS S NUM EXT 310 COL CENTRO",
                 "phone": "(01 422) 53283500---",
                 "lat": null,
                 "lon": null,
                 "type": 2,
                 "is_favorite": false,
                 "list": null,
                 "sToken": null
                 }, {
                 "businessId": 7779,
                 "providerId": "F2237",
                 "name": "FARMACIA WAL MART / ALTOZANO",
                 "address": "AV. MONTAÑA MONARCA NORTE  NUM EXT 250 COL EJIDO JESUS DEL MONTE",
                 "phone": "(01 443) 53283500---",
                 "lat": null,
                 "lon": null,
                 "type": 2,
                 "is_favorite": false,
                 "list": null,
                 "sToken": null
                 }, {
                 "businessId": 8730,
                 "providerId": "F2240",
                 "name": "FARMACIA WAL MART / URUAPAN",
                 "address": "BLVD. INDUSTRIAL  NUM EXT 1241 COL VILLA URUAPAN",
                 "phone": "(01 452) 53283500---",
                 "lat": null,
                 "lon": null,
                 "type": 2,
                 "is_favorite": false,
                 "list": null,
                 "sToken": null
                 }, {
                 "businessId": 8339,
                 "providerId": "F2242",
                 "name": "FARMACIA WAL MART / MORELIA",
                 "address": "CALZ. LA HUERTA  NUM EXT 3000 COL EXHACIENDA LA HUERTA",
                 "phone": "(01 443) 53283500---",
                 "lat": null,
                 "lon": null,
                 "type": 2,
                 "is_favorite": false,
                 "list": null,
                 "sToken": null
                 }, {
                 "businessId": 8434,
                 "providerId": "F2243",
                 "name": "FARMACIA WAL MART / PLAZA ANA",
                 "address": "CALZADA ZAMORA JACONA NUM EXT 1900 COL LA NUEVA LUNETA",
                 "phone": "(01 351) 53283500---",
                 "lat": null,
                 "lon": null,
                 "type": 2,
                 "is_favorite": false,
                 "list": null,
                 "sToken": null
                 }, {
                 "businessId": 8200,
                 "providerId": "F2244",
                 "name": "FARMACIA WAL MART / LA PIEDAD",
                 "address": "BLVD. LAZARO CARDENAS   NUM EXT 3001 COL LAZARO CARDENAS",
                 "phone": "(01 352) 53283500---",
                 "lat": null,
                 "lon": null,
                 "type": 2,
                 "is_favorite": false,
                 "list": null,
                 "sToken": null
                 }, {
                 "businessId": 8053,
                 "providerId": "F2245",
                 "name": "FARMACIA WAL MART / ESTADIO MORELIA",
                 "address": "GENERAL GERONIMO TREVIÑO NUM EXT 56 COL QUINCEO",
                 "phone": "(01 443) 53283500---",
                 "lat": null,
                 "lon": null,
                 "type": 2,
                 "is_favorite": false,
                 "list": null,
                 "sToken": null
                 }, {
                 "businessId": 8227,
                 "providerId": "F2246",
                 "name": "FARMACIA WAL MART / LAZARO CARDENAS",
                 "address": "AV. LAS PALMAS  NUM EXT 1559 COL EL PALMAR",
                 "phone": "(01 753) 53283500---",
                 "lat": null,
                 "lon": null,
                 "type": 2,
                 "is_favorite": false,
                 "list": null,
                 "sToken": null
                 }, {
                 "businessId": 8322,
                 "providerId": "F2247",
                 "name": "FARMACIA WAL MART / MIL CUMBRES",
                 "address": "AV. CAMELINAS  NUM EXT 3352 COL JARDINES DEL RINCON",
                 "phone": "(01 443) 53283500---",
                 "lat": null,
                 "lon": null,
                 "type": 2,
                 "is_favorite": false,
                 "list": null,
                 "sToken": null
                 }, {
                 "businessId": 8337,
                 "providerId": "F2300",
                 "name": "FARMACIA WAL MART / MORELIA",
                 "address": "AV. LIC. ENRIQUE RAMIREZ  NUM EXT 445 NUM INT LOCAL 5 COL LAS AMERICAS",
                 "phone": "(01 44) 53283500---",
                 "lat": null,
                 "lon": null,
                 "type": 2,
                 "is_favorite": false,
                 "list": null,
                 "sToken": null
                 }, {
                 "businessId": 8226,
                 "providerId": "F2396",
                 "name": "FARMACIA WAL MART / LAZARO CARDENAS",
                 "address": "AV. AUTONOMIA LAZARO CARDENAS  NUM EXT S/N COL GALEANA SALAZAR",
                 "phone": "(01 753) 53283500---",
                 "lat": null,
                 "lon": null,
                 "type": 2,
                 "is_favorite": false,
                 "list": null,
                 "sToken": null
                 }, {
                 "businessId": 8729,
                 "providerId": "F2400",
                 "name": "FARMACIA WAL MART / URUAPAN",
                 "address": "BLVD INDUSTRIAL  NUM EXT 1241 COL VILLA URUAPAN",
                 "phone": "(01 452) 53283500---",
                 "lat": null,
                 "lon": null,
                 "type": 2,
                 "is_favorite": false,
                 "list": null,
                 "sToken": null
                 }, {
                 "businessId": 8796,
                 "providerId": "F2404",
                 "name": "FARMACIA WAL MART / ZAMORA",
                 "address": "FRANCISCO I MADERO    NUM EXT 850 COL EL ENSUEÑO",
                 "phone": "(01 351) 53283500---",
                 "lat": null,
                 "lon": null,
                 "type": 2,
                 "is_favorite": false,
                 "list": null,
                 "sToken": null
                 }, {
                 "businessId": 8336,
                 "providerId": "F2410",
                 "name": "FARMACIA WAL MART / MORELIA",
                 "address": "AV. ENRIQUE RAMIREZ NUM EXT 420 COL CHAPULTEPEC",
                 "phone": "(01 443) 53283500---",
                 "lat": null,
                 "lon": null,
                 "type": 2,
                 "is_favorite": false,
                 "list": null,
                 "sToken": null
                 }, {
                 "businessId": 8807,
                 "providerId": "F2037",
                 "name": "FARMACIA WAL MART / ZINAPECUARO, MICHOACAN",
                 "address": "LIBRAMIENTO LEOPOLDO IZINCUNEGUI TERCERO NUM EXT 339 COL BELLAVISTA",
                 "phone": "(01 451) 53283500---",
                 "lat": null,
                 "lon": null,
                 "type": 2,
                 "is_favorite": false,
                 "list": null,
                 "sToken": null
                 }, {
                 "businessId": 8901,
                 "providerId": "F2527",
                 "name": "FARMAPRONTO ZAMORA",
                 "address": "AV. JUAREZ OTE 90 INT. 102 COL CENTRO\n",
                 "phone": "(01 351) 517 7166---",
                 "lat": null,
                 "lon": null,
                 "type": 2,
                 "is_favorite": false,
                 "list": null,
                 "sToken": null
                 }],
        "sToken": null
    },
    "status": "0",
    "sToken": null,
    "extras": []
}
